{
	"alexandria": [
        {
            "postal_code": 21511,
            "address": "2 Mahmoud Salama u / Movement Center Building",
            "post_office": "Movement Center",
            "lat": 31.2000924,
            "lng": 29.9187387
        },
        {
            "postal_code": 21512,
            "address": "Safia Zaghloul St. Tower mouth / Attarine",
            "post_office": "Safia Zaghloul",
            "lat": 31.1975698,
            "lng": 29.9040608
        },
        {
            "postal_code": 21513,
            "address": "11 Saqr Pasha u / customs",
            "post_office": "Ras El Teen",
            "lat": 31.2022163,
            "lng": 29.8783384
        },
        {
            "postal_code": 21514,
            "address": "111 Liberty / east through the door",
            "post_office": "Gardens waterfalls",
            "lat": 31.2000924,
            "lng": 29.9187387
        },
        {
            "postal_code": 21515,
            "address": "67 Muharram Bey St.",
            "post_office": "Muharram your",
            "lat": 31.1913587,
            "lng": 29.913491
        },
        {
            "postal_code": 21516,
            "address": "30 El Serail / door east",
            "post_office": "Hadra tribal",
            "lat": 31.2000924,
            "lng": 29.9187387
        },
        {
            "postal_code": 21517,
            "address": "El -Kashef Attarine",
            "post_office": "Attarine",
            "lat": 31.1942422,
            "lng": 29.8993156
        },
        {
            "postal_code": 21518,
            "address": "Security Directorate / frankincense building",
            "post_office": "Salahuddin frankincense",
            "lat": 31.2119136,
            "lng": 29.9527617
        },
        {
            "postal_code": 21519,
            "address": "U Chamber of Commerce / Sidi Gaber",
            "post_office": "Alexandria Manshiya",
            "lat": 31.202093,
            "lng": 29.912622
        },
        {
            "postal_code": 21521,
            "address": "Attarine / 22 El Shaheed Mostafa Hafez",
            "post_office": "Obelisk",
            "lat": 31.1988965,
            "lng": 29.8895426
        },
        {
            "postal_code": 21522,
            "address": "22 perfect / Bualeno / Muharram Bey St.",
            "post_office": "Bualeno",
            "lat": 31.2000924,
            "lng": 29.9187387
        },
        {
            "postal_code": 21523,
            "address": "328 Liberty Road Sidi Gaber",
            "post_office": "Sidi Gaber",
            "lat": 31.22133479999999,
            "lng": 29.9379151
        },
        {
            "postal_code": 21524,
            "address": "112 Omar Lotfy St. / Ebrahemia",
            "post_office": "Ebrahemia sand",
            "lat": 31.2155925,
            "lng": 29.9283258
        },
        {
            "postal_code": 21525,
            "address": "Omar Lotfy / Door East St.",
            "post_office": "Camp Caesar",
            "lat": 31.20693039999999,
            "lng": 29.9121533
        },
        {
            "postal_code": 21526,
            "address": "100 St. Alexander the Great / door east",
            "post_office": "Shatby",
            "lat": 31.2000924,
            "lng": 29.9187387
        },
        {
            "postal_code": 21527,
            "address": "St. station market / sand",
            "post_office": "Backus",
            "lat": 31.2000924,
            "lng": 29.9187387
        },
        {
            "postal_code": 21528,
            "address": "Mohammad Karim / Montazah St.",
            "post_office": "Manshiya park",
            "lat": 31.2000924,
            "lng": 29.9187387
        },
        {
            "postal_code": 21529,
            "address": "431 Liberty Road / Sidi Gaber",
            "post_office": "Rushdie",
            "lat": 31.22133479999999,
            "lng": 29.9379151
        },
        {
            "postal_code": 21531,
            "address": "Coast Guard / Bolkly / building Sidi Gaber",
            "post_office": "Bolkly",
            "lat": 31.22133479999999,
            "lng": 29.9379151
        },
        {
            "postal_code": 21532,
            "address": "210 Abdel Salam Aref sand u",
            "post_office": "San Stefano",
            "lat": 31.2487699,
            "lng": 29.97030449999999
        },
        {
            "postal_code": 21533,
            "address": "U beautiful Abu Harid / swords / park",
            "post_office": "Inspection Swords",
            "lat": 31.2000924,
            "lng": 29.9187387
        },
        {
            "postal_code": 21534,
            "address": "Customs Administration Building / Minaoualascndria",
            "post_office": "Customs Escandriaalmax",
            "lat": 31.2000924,
            "lng": 29.9187387
        },
        {
            "postal_code": 21535,
            "address": "Tram Max / exotic rotation",
            "post_office": "Max",
            "lat": 31.1637832,
            "lng": 29.862915
        },
        {
            "postal_code": 21536,
            "address": "The customs office building / port",
            "post_office": "Marine passenger terminal port",
            "lat": 31.1757919,
            "lng": 29.8622164
        },
        {
            "postal_code": 21537,
            "address": "Bosta / u Alkhalh",
            "post_office": "Exotic",
            "lat": 31.2000924,
            "lng": 29.9187387
        },
        {
            "postal_code": 21538,
            "address": "St. Arabian swords / Montazah",
            "post_office": "Housing Industrial swords",
            "lat": 31.2884954,
            "lng": 30.01596919999999
        },
        {
            "postal_code": 21539,
            "address": "U Institute religious Aasafira / Montazah",
            "post_office": "Aasafira Montazah",
            "lat": 31.2884954,
            "lng": 30.01596919999999
        },
        {
            "postal_code": 21541,
            "address": "K 38 Cairo-Alexandria Desert Road",
            "post_office": "Alexandria area recruiting",
            "lat": 30.0716252,
            "lng": 30.937103
        },
        {
            "postal_code": 21542,
            "address": "Saad Zaghloul St. building Central",
            "post_office": "Provide Alexandria area",
            "lat": 31.1991059,
            "lng": 29.8989171
        },
        {
            "postal_code": 21543,
            "address": "University City building",
            "post_office": "Students City _ Alexandria",
            "lat": 31.2000924,
            "lng": 29.9187387
        },
        {
            "postal_code": 21544,
            "address": "College building through the navigation / Almentz 5",
            "post_office": "Alexandria Faculty of Engineering",
            "lat": 31.207812,
            "lng": 29.9115386
        },
        {
            "postal_code": 21545,
            "address": "College building through the navigation / Almentz 5",
            "post_office": "College of Agriculture Alexandria",
            "lat": 31.207812,
            "lng": 29.9115386
        },
        {
            "postal_code": 21546,
            "address": "College building through the navigation / Almentz 5",
            "post_office": "Faculty of Islamic Studies Girls",
            "lat": 31.207812,
            "lng": 29.9115386
        },
        {
            "postal_code": 21547,
            "address": "Muharram your",
            "post_office": "Muharram your second",
            "lat": 31.2000924,
            "lng": 29.9187387
        },
        {
            "postal_code": 21548,
            "address": "Alexandria Governorate building",
            "post_office": "Cabinet of Alexandria Governorate",
            "lat": 30.8760568,
            "lng": 29.742604
        },
        {
            "postal_code": 21549,
            "address": "23 El Kamel Mustafa Bolekh",
            "post_office": "Judges Club",
            "lat": 31.2290394,
            "lng": 29.9637314
        },
        {
            "postal_code": 21551,
            "address": "Public housing Kabbari / Mina onions",
            "post_office": "Kabbari",
            "lat": 31.1754447,
            "lng": 29.8773162
        },
        {
            "postal_code": 21552,
            "address": "Housing Aashobeih Mina onions",
            "post_office": "Mina onions",
            "lat": 31.2000924,
            "lng": 29.9187387
        },
        {
            "postal_code": 21553,
            "address": "209 Max u / Mina onions",
            "post_office": "Wardian",
            "lat": 31.2000924,
            "lng": 29.9187387
        },
        {
            "postal_code": 21556,
            "address": "El Sayed Mohammad Karim / customs",
            "post_office": "Anfoushi",
            "lat": 31.2000924,
            "lng": 29.9187387
        },
        {
            "postal_code": 21557,
            "address": "Ambrozo / public housing / Muharram your",
            "post_office": "Ombrozr",
            "lat": 31.2000924,
            "lng": 29.9187387
        },
        {
            "postal_code": 21558,
            "address": "50 El Sultan Mosque / symbols",
            "post_office": "Sultan Mosque",
            "lat": 31.2240703,
            "lng": 29.934755
        },
        {
            "postal_code": 21559,
            "address": "U to open next to the tram / ??sand",
            "post_office": "Door Sidra",
            "lat": 31.2000924,
            "lng": 29.9187387
        },
        {
            "postal_code": 21561,
            "address": "215 Liberty / Middle Gate Road",
            "post_office": "Hadra sea",
            "lat": 31.2000924,
            "lng": 29.9187387
        },
        {
            "postal_code": 21562,
            "address": "Hassan Tawfiq / Manshiya",
            "post_office": "Field Manshiya",
            "lat": 31.2000924,
            "lng": 29.9187387
        },
        {
            "postal_code": 21563,
            "address": "Highest tunnel Raml Station",
            "post_office": "Raml Station",
            "lat": 31.2013546,
            "lng": 29.9010136
        },
        {
            "postal_code": 21564,
            "address": "68 El alder tree / symbols",
            "post_office": "Gheit grapes",
            "lat": 31.2000924,
            "lng": 29.9187387
        },
        {
            "postal_code": 21565,
            "address": "129 Gheit Grape St. Alban / symbols",
            "post_office": "Gheit grapes sub",
            "lat": 31.2000924,
            "lng": 29.9187387
        },
        {
            "postal_code": 21566,
            "address": "Ibrahim Pasha St. Pompey's Pillar / symbols",
            "post_office": "Icons",
            "lat": 31.1849094,
            "lng": 29.8992082
        },
        {
            "postal_code": 21567,
            "address": "U beautiful Abu Harid / Montazah",
            "post_office": "Sieve",
            "lat": 31.2884954,
            "lng": 30.01596919999999
        },
        {
            "postal_code": 21569,
            "address": "89 Ragheb Pasha u / Muharram your",
            "post_office": "Ragheb Pasha",
            "lat": 31.2000924,
            "lng": 29.9187387
        },
        {
            "postal_code": 21571,
            "address": "/ Montazah railway station building",
            "post_office": "Nukrashi",
            "lat": 31.2884954,
            "lng": 30.01596919999999
        },
        {
            "postal_code": 21572,
            "address": "Public housing / com Alhqavp",
            "post_office": "Com Alhqavp",
            "lat": 31.2000924,
            "lng": 29.9187387
        },
        {
            "postal_code": 21573,
            "address": "Maintaining housing Kabbari / Montazah",
            "post_office": "Housing Industrial _ Kabbari",
            "lat": 31.2000924,
            "lng": 29.9187387
        },
        {
            "postal_code": 21574,
            "address": "St. Barricade Block 8",
            "post_office": "Barricade",
            "lat": 31.2332303,
            "lng": 29.9718673
        },
        {
            "postal_code": 21575,
            "address": "Hannoville",
            "post_office": "Hannoville",
            "lat": 31.1982191,
            "lng": 29.9565028
        },
        {
            "postal_code": 21576,
            "address": "Imam Citadel",
            "post_office": "E Egyptian club",
            "lat": 31.2000924,
            "lng": 29.9187387
        },
        {
            "postal_code": 21581,
            "address": "Farm houses Hadra / door east Prison",
            "post_office": "Hadra second",
            "lat": 31.2000924,
            "lng": 29.9187387
        },
        {
            "postal_code": 21611,
            "address": "Khalid Bin Walid St. / Aalmentzh",
            "post_office": "Sidi Bishr",
            "lat": 31.2613209,
            "lng": 29.983861
        },
        {
            "postal_code": 21612,
            "address": "Central Building Sidi Gaber",
            "post_office": "Central Sidi Gaber",
            "lat": 31.22133479999999,
            "lng": 29.9379151
        },
        {
            "postal_code": 21613,
            "address": "St. Sidi Bishr tram station / Montazah",
            "post_office": "Serail",
            "lat": 31.2525499,
            "lng": 29.9763505
        },
        {
            "postal_code": 21616,
            "address": "St. station market / sand",
            "post_office": "Backus sub",
            "lat": 31.2000924,
            "lng": 29.9187387
        },
        {
            "postal_code": 21617,
            "address": "21 See Port Said Jaber St.",
            "post_office": "Sporting",
            "lat": 31.2652893,
            "lng": 32.3018661
        },
        {
            "postal_code": 21618,
            "address": "Seif Yazal u / Cleopatra",
            "post_office": "Cleoa Patra pools",
            "lat": 31.2000924,
            "lng": 29.9187387
        },
        {
            "postal_code": 21619,
            "address": "63 Abdel Salam Aref St. / sand",
            "post_office": "Oppressed",
            "lat": 31.2371567,
            "lng": 29.9581312
        },
        {
            "postal_code": 21621,
            "address": "Mustafa Kamel Gabriel / sand u",
            "post_office": "Manor born",
            "lat": 31.2104736,
            "lng": 29.9437387
        },
        {
            "postal_code": 21622,
            "address": "Ahmed Abu Soliman St.",
            "post_office": "Mahrosa",
            "lat": 31.2000924,
            "lng": 29.9187387
        },
        {
            "postal_code": 21624,
            "address": "Railway station Sidi Bishr / Montazah",
            "post_office": "Sidi Bishr station",
            "lat": 31.2573288,
            "lng": 29.9945747
        },
        {
            "postal_code": 21627,
            "address": "Sidi Bishr tram / ??Park station",
            "post_office": "Bear Massoud",
            "lat": 31.2525499,
            "lng": 29.9763505
        },
        {
            "postal_code": 21628,
            "address": "Malak Hanafi / Derbala / sand",
            "post_office": "Derbala housing",
            "lat": 31.2415193,
            "lng": 29.97000229999999
        },
        {
            "postal_code": 21629,
            "address": "City of Peace head Alsoade / Montazah",
            "post_office": "Black head",
            "lat": 31.2884954,
            "lng": 30.01596919999999
        },
        {
            "postal_code": 21631,
            "address": "Club / Sidi Gaber building",
            "post_office": "Sporting Club",
            "lat": 31.22133479999999,
            "lng": 29.9379151
        },
        {
            "postal_code": 21632,
            "address": "El Farouk front of ways Zgao",
            "post_office": "Manshyet scientists",
            "lat": 31.2000924,
            "lng": 29.9187387
        },
        {
            "postal_code": 21633,
            "address": "U Channel / tribal land / customs",
            "post_office": "Manor fishermen",
            "lat": 31.2000924,
            "lng": 29.9187387
        },
        {
            "postal_code": 21634,
            "address": "Populated city building city Faisal",
            "post_office": "Faisal City",
            "lat": 31.2000924,
            "lng": 29.9187387
        },
        {
            "postal_code": 21635,
            "address": "Muharram passage of your administration",
            "post_office": "Muharram your passage",
            "lat": 31.2000924,
            "lng": 29.9187387
        },
        {
            "postal_code": 21636,
            "address": "Police navigation / Montazah",
            "post_office": "??? 10",
            "lat": 31.2636811,
            "lng": 30.0278365
        },
        {
            "postal_code": 21637,
            "address": "Manor Saclam / Montazah",
            "post_office": "Saclam",
            "lat": 31.2884954,
            "lng": 30.01596919999999
        },
        {
            "postal_code": 21638,
            "address": "Behind Alexandria Pharmaceuticals / Montazah",
            "post_office": "Manor Sea",
            "lat": 31.2204389,
            "lng": 29.9942214
        },
        {
            "postal_code": 21639,
            "address": "Manor Alzawadh Khurshid / Montazah",
            "post_office": "Alzawadh",
            "lat": 31.2884954,
            "lng": 30.01596919999999
        },
        {
            "postal_code": 21641,
            "address": "Security Directorate / Smouha building",
            "post_office": "Security Directorate",
            "lat": 31.2155235,
            "lng": 29.9420061
        },
        {
            "postal_code": 21642,
            "address": "The clubhouse",
            "post_office": "Horse owners club",
            "lat": 30.9819707,
            "lng": 29.6777914
        },
        {
            "postal_code": 21643,
            "address": "Inside the clubhouse",
            "post_office": "Acacia Club",
            "lat": 31.2000924,
            "lng": 29.9187387
        },
        {
            "postal_code": 21644,
            "address": "Kilo housing 21",
            "post_office": "Kilo housing 21",
            "lat": 31.2000924,
            "lng": 29.9187387
        },
        {
            "postal_code": 21648,
            "address": "Manpower Building 29",
            "post_office": "Smouha",
            "lat": 31.2000924,
            "lng": 29.9187387
        },
        {
            "postal_code": 21913,
            "address": "Abu Qir railway station building",
            "post_office": "Abu Qir",
            "lat": 31.3114241,
            "lng": 30.0603342
        },
        {
            "postal_code": 21914,
            "address": "25 Omar Mukhtar u / sand",
            "post_office": "Omar Mukhtar Akassay",
            "lat": 31.2000924,
            "lng": 29.9187387
        },
        {
            "postal_code": 21915,
            "address": "Beach / Montazah building",
            "post_office": "Go globe",
            "lat": 31.2884954,
            "lng": 30.01596919999999
        },
        {
            "postal_code": 21918,
            "address": "137 Stone St., the nuclear / sand",
            "post_office": "Stone the nuclear",
            "lat": 31.2000924,
            "lng": 29.9187387
        },
        {
            "postal_code": 21919,
            "address": "Railway building / Montazah",
            "post_office": "Montazah",
            "lat": 31.2884954,
            "lng": 30.01596919999999
        },
        {
            "postal_code": 21922,
            "address": "Manor Khurshid / Montazah",
            "post_office": "Manor Khurshid",
            "lat": 31.2884954,
            "lng": 30.01596919999999
        },
        {
            "postal_code": 21923,
            "address": "Malak Hanafi / Montazah",
            "post_office": "Mandara",
            "lat": 31.2000924,
            "lng": 29.9187387
        },
        {
            "postal_code": 21924,
            "address": "1 Isaac Rushdie u / sand",
            "post_office": "Sahaba Mosque",
            "lat": 31.2000924,
            "lng": 29.9187387
        },
        {
            "postal_code": 21925,
            "address": "Eighth village APIs / sand",
            "post_office": "Eighth village _ APIs",
            "lat": 31.2000924,
            "lng": 29.9187387
        },
        {
            "postal_code": 21926,
            "address": "Public housing Gheit grapes / symbols",
            "post_office": "Lafrahdh",
            "lat": 31.2000924,
            "lng": 29.9187387
        },
        {
            "postal_code": 21927,
            "address": "Portland Cement / exotic Company",
            "post_office": "Moon Valley",
            "lat": 31.2000924,
            "lng": 29.9187387
        },
        {
            "postal_code": 21928,
            "address": "Teacher housing Bitash / exotic",
            "post_office": "Ajami Bitash",
            "lat": 31.1855725,
            "lng": 29.8813951
        },
        {
            "postal_code": 21929,
            "address": "Angle Sidi Abdel Kader / Alexandria",
            "post_office": "Sidi Abdel Kader",
            "lat": 31.2241108,
            "lng": 29.9548859
        },
        {
            "postal_code": 21934,
            "address": "Borg El Arab / behind your city",
            "post_office": "New Borg El Arab",
            "lat": 30.9150146,
            "lng": 29.5455699
        },
        {
            "postal_code": 21935,
            "address": "Joyful Village / Alex.",
            "post_office": "Unstressed",
            "lat": 31.2000924,
            "lng": 29.9187387
        },
        {
            "postal_code": 21936,
            "address": "City Burj Al Arab / Alexandria",
            "post_office": "Central Burj Al Arab",
            "lat": 30.9010214,
            "lng": 29.5516077
        },
        {
            "postal_code": 21939,
            "address": "First APIs / sand village",
            "post_office": "The first village APIs",
            "lat": 31.2000924,
            "lng": 29.9187387
        },
        {
            "postal_code": 21941,
            "address": "Mohsen manor Awayed / Montazah",
            "post_office": "Mohsen manor",
            "lat": 31.218584,
            "lng": 29.9939045
        },
        {
            "postal_code": 21942,
            "address": "Village Mustafa Ismail / Alexandria",
            "post_office": "Mustafa Ismail",
            "lat": 31.2000924,
            "lng": 29.9187387
        },
        {
            "postal_code": 21943,
            "address": "Fourth village APIs / Muharram your",
            "post_office": "Fourth village APIs",
            "lat": 31.2000924,
            "lng": 29.9187387
        },
        {
            "postal_code": 21944,
            "address": "Occasions House / Village tenth building",
            "post_office": "Village tenth APIs",
            "lat": 31.1886698,
            "lng": 30.0158688
        },
        {
            "postal_code": 21945,
            "address": "Montazah",
            "post_office": "Migrants",
            "lat": 31.2884954,
            "lng": 30.01596919999999
        },
        {
            "postal_code": 21946,
            "address": "Montazah",
            "post_office": "Maraghy",
            "lat": 31.2884954,
            "lng": 30.01596919999999
        },
        {
            "postal_code": 23511,
            "address": "Ameria / Alex.",
            "post_office": "Ameria Alexandria",
            "lat": 31.2290504,
            "lng": 29.9549747
        },
        {
            "postal_code": 23512,
            "address": "General Investment Authority building",
            "post_office": "Investment Authority Free Zone",
            "lat": 31.2000924,
            "lng": 29.9187387
        },
        {
            "postal_code": 23611,
            "address": "K 41.5 North Coast",
            "post_office": "Sunrise Village",
            "lat": 31.2000924,
            "lng": 29.9187387
        },
        {
            "postal_code": 23623,
            "address": "El Fath",
            "post_office": "Manhood",
            "lat": 31.2349282,
            "lng": 29.9652857
        },
        {
            "postal_code": 23641,
            "address": "Village Renaissance Ameria",
            "post_office": "Renaissance",
            "lat": 31.2000924,
            "lng": 29.9187387
        },
        {
            "postal_code": 23642,
            "address": "Mubarak Ameria Alexandria housing",
            "post_office": "Housing Mubarak",
            "lat": 31.2000924,
            "lng": 29.9187387
        },
        {
            "postal_code": 23711,
            "address": "Palestine / Alexandria Village",
            "post_office": "Palestine village",
            "lat": 31.2862694,
            "lng": 30.0188381
        },
        {
            "postal_code": 23715,
            "address": "Abu silos Center",
            "post_office": "Freedom Mail",
            "lat": 31.2000924,
            "lng": 29.9187387
        },
        {
            "postal_code": 23718,
            "address": "Project graduates Ameria",
            "post_office": "Port Mariout",
            "lat": 31.2000924,
            "lng": 29.9187387
        },
        {
            "postal_code": 23722,
            "address": "Modern marriage Ameria / Alexandria housing",
            "post_office": "Merghem",
            "lat": 31.2000924,
            "lng": 29.9187387
        },
        {
            "postal_code": 23725,
            "address": "Village pride - Ameria",
            "post_office": "Glory",
            "lat": 31.2000924,
            "lng": 29.9187387
        },
        {
            "postal_code": 23726,
            "address": "Burj El Arab",
            "post_office": "Ahmed Orabi",
            "lat": 30.9010214,
            "lng": 29.5516077
        },
        {
            "postal_code": 78945,
            "address": "Kafr El Dawar",
            "post_office": "Qhobanah to Oukan",
            "lat": 31.13403569999999,
            "lng": 30.133566
        },
        {
            "postal_code": 23724,
            "address": "Mubarak (office closed)",
            "post_office": "Mubarak (office closed)",
            "lat": 31.2000924,
            "lng": 29.9187387
        },
        {
            "postal_code": 21623,
            "address": "Inside Airport / Airport Building (Closed 18/12/2010)",
            "post_office": "Airport (closed)",
            "lat": 31.2000924,
            "lng": 29.9187387
        },
        {
            "postal_code": 21647,
            "address": "Manpower Building / Semouha (Closed on 1/11/2010)",
            "post_office": "Semouha Complex for Pensions - Closed",
            "lat": 31.2155235,
            "lng": 29.9420061
        },
        {
            "postal_code": 21947,
            "address": "Old School St. Beside El Khair Mosque - Khorshid El Bahareya",
            "post_office": "Khurshid Marine Association",
            "lat": 31.1981571,
            "lng": 29.8828763
        },
        {
            "postal_code": 21656,
            "address": "Teachers Beach Club next to the Stanley Bridge",
            "post_office": "Teachers Beach Club",
            "lat": 31.2314529,
            "lng": 29.944227
        }
    ],
	"aswan": [
        {
            "postal_code": 81511,
            "address": "Cornbash Nile u / Aswan",
            "post_office": "Aswan",
            "lat": 24.088938,
            "lng": 32.8998293
        },
        {
            "postal_code": 81641,
            "address": "Railroad / Edfu Center station",
            "post_office": "Edfu East",
            "lat": 24.9779286,
            "lng": 32.8733705
        },
        {
            "postal_code": 81645,
            "address": "Edfu tribal / Badfo",
            "post_office": "Edfu tribal",
            "lat": 24.9791623,
            "lng": 32.875801
        },
        {
            "postal_code": 81614,
            "address": "Okulait village next to the local unit / Kom Ombo Center",
            "post_office": "Akulait",
            "lat": 24.4521332,
            "lng": 32.9284319
        },
        {
            "postal_code": 81646,
            "address": "Egypt Aswan u / Canal gray",
            "post_office": "Albesalah",
            "lat": 24.088938,
            "lng": 32.8998293
        },
        {
            "postal_code": 81683,
            "address": "Next to the local unit in the village of Aldjaafarh / Draw Center",
            "post_office": "Aldjaafarh",
            "lat": 24.088938,
            "lng": 32.8998293
        },
        {
            "postal_code": 81712,
            "address": "Khattara village / Aswan Center",
            "post_office": "Khattara Aswan",
            "lat": 24.088938,
            "lng": 32.8998293
        },
        {
            "postal_code": 81718,
            "address": "Local / Edfu Unity Center Building",
            "post_office": "Alrdesah",
            "lat": 24.9779286,
            "lng": 32.8733705
        },
        {
            "postal_code": 81647,
            "address": "District Alhsaaa gray / Edfu Center",
            "post_office": "Gray sea",
            "lat": 24.1003304,
            "lng": 32.9059035
        },
        {
            "postal_code": 81722,
            "address": "Next to the railway level crossing , Iron Edfu",
            "post_office": "Seven East",
            "lat": 24.9779286,
            "lng": 32.8733705
        },
        {
            "postal_code": 81648,
            "address": "Nasr u / Aswan / Edfu Center",
            "post_office": "Seven West",
            "lat": 24.088938,
            "lng": 32.8998293
        },
        {
            "postal_code": 81515,
            "address": "Railway station waterfall / Aswan Center",
            "post_office": "Waterfall",
            "lat": 24.0997673,
            "lng": 32.9022878
        },
        {
            "postal_code": 81715,
            "address": "District Alcajoj / next to the mosque / Kom Ombo",
            "post_office": "Alcajoj",
            "lat": 24.4521332,
            "lng": 32.9284319
        },
        {
            "postal_code": 81649,
            "address": "District Alklh / Edfu",
            "post_office": "Alklh",
            "lat": 24.9791623,
            "lng": 32.875801
        },
        {
            "postal_code": 81719,
            "address": "District Mahamid Badfo",
            "post_office": "Mahamid",
            "lat": 24.088938,
            "lng": 32.8998293
        },
        {
            "postal_code": 81615,
            "address": "Naga district Mansuriya / Draw Center",
            "post_office": "Mansuriya tribal",
            "lat": 24.088938,
            "lng": 32.8998293
        },
        {
            "postal_code": 81651,
            "address": "Nag Alamuesat / Badfo",
            "post_office": "Nag Alamuesat",
            "lat": 24.088938,
            "lng": 32.8998293
        },
        {
            "postal_code": 81632,
            "address": "Banyan tribal village / Nile Corniche / Draw Center",
            "post_office": "Npan tribal",
            "lat": 24.088938,
            "lng": 32.8998293
        },
        {
            "postal_code": 81516,
            "address": "District Aswan Reservoir",
            "post_office": "Aswan Reservoir",
            "lat": 24.088938,
            "lng": 32.8998293
        },
        {
            "postal_code": 81631,
            "address": "Draw city",
            "post_office": "Draw",
            "lat": 24.088938,
            "lng": 32.8998293
        },
        {
            "postal_code": 81716,
            "address": "Salwa district / Kom Ombo Center",
            "post_office": "Salwa",
            "lat": 24.4698032,
            "lng": 32.9381321
        },
        {
            "postal_code": 81518,
            "address": "West Nile district of Aswan / village west of Aswan",
            "post_office": "West Aswan",
            "lat": 24.088938,
            "lng": 32.8998293
        },
        {
            "postal_code": 81611,
            "address": "In Kom Ombo / next to the station",
            "post_office": "Kom Ombo",
            "lat": 24.4824667,
            "lng": 32.9474616
        },
        {
            "postal_code": 81653,
            "address": "Alfozh village / Edfu Center",
            "post_office": "Alfozh",
            "lat": 24.9791623,
            "lng": 32.875801
        },
        {
            "postal_code": 81519,
            "address": "High Dam district east / Aswan Center",
            "post_office": "High Dam east",
            "lat": 23.970883,
            "lng": 32.8772699
        },
        {
            "postal_code": 81521,
            "address": "High Dam West / Mrkzoswan",
            "post_office": "High Dam West",
            "lat": 23.970883,
            "lng": 32.8772699
        },
        {
            "postal_code": 81512,
            "address": "National Party building in Aswan",
            "post_office": "Aswan complex",
            "lat": 24.088938,
            "lng": 32.8998293
        },
        {
            "postal_code": 81654,
            "address": "Tounnap village / Edfu Center",
            "post_office": "Tounnap",
            "lat": 24.9791623,
            "lng": 32.875801
        },
        {
            "postal_code": 81714,
            "address": "Within the local unit complex cancellation / Draw Center",
            "post_office": "Write off",
            "lat": 24.0932334,
            "lng": 32.8915518
        },
        {
            "postal_code": 81652,
            "address": "Tribal district gray / Edfu Center",
            "post_office": "Ramadi tribal",
            "lat": 24.9791623,
            "lng": 32.875801
        },
        {
            "postal_code": 81713,
            "address": "Inside the campus of the local unit / Aswan",
            "post_office": "Abu Rish sea",
            "lat": 24.0994435,
            "lng": 32.8989513
        },
        {
            "postal_code": 81513,
            "address": "The new district Torrent Aswan",
            "post_office": "Torrent Aswan",
            "lat": 24.088938,
            "lng": 32.8998293
        },
        {
            "postal_code": 81717,
            "address": "District Jafar Sadeq / Kom Ombo",
            "post_office": "Jafar Sadeq",
            "lat": 24.4789609,
            "lng": 32.9461465
        },
        {
            "postal_code": 81523,
            "address": "Market trade in Aswan",
            "post_office": "Caesarea Aswan",
            "lat": 24.088938,
            "lng": 32.8998293
        },
        {
            "postal_code": 81627,
            "address": "In Kalabsha / m Nasr Nuba",
            "post_office": "Kalabsha",
            "lat": 24.088938,
            "lng": 32.8998293
        },
        {
            "postal_code": 81612,
            "address": "Next to the sugar factory in Kom Ombo",
            "post_office": "Kom Ombo sub",
            "lat": 24.4820469,
            "lng": 32.9451757
        },
        {
            "postal_code": 81721,
            "address": "Reservation / Edfu",
            "post_office": "Booking sea",
            "lat": 24.9791623,
            "lng": 32.875801
        },
        {
            "postal_code": 81522,
            "address": "Shader Aswan",
            "post_office": "East station",
            "lat": 24.088938,
            "lng": 32.8998293
        },
        {
            "postal_code": 81514,
            "address": "Colony so / Aswan",
            "post_office": "So Aswan",
            "lat": 24.088938,
            "lng": 32.8998293
        },
        {
            "postal_code": 81621,
            "address": "Toshka village / Nasr Nuba Center",
            "post_office": "Toshka",
            "lat": 23.4325123,
            "lng": 30.5969758
        },
        {
            "postal_code": 81626,
            "address": "Korth third district / Nasr Center",
            "post_office": "Third Korth",
            "lat": 24.088938,
            "lng": 32.8998293
        },
        {
            "postal_code": 81624,
            "address": "Nasr Nuba Center",
            "post_office": "Nasr Nuba",
            "lat": 24.088938,
            "lng": 32.8998293
        },
        {
            "postal_code": 81525,
            "address": "Badr St. / Aswan Center",
            "post_office": "Abu Simbel tourist",
            "lat": 24.088938,
            "lng": 32.8998293
        },
        {
            "postal_code": 81517,
            "address": "Central building in Aswan",
            "post_office": "Central Aswan",
            "lat": 24.088938,
            "lng": 32.8998293
        },
        {
            "postal_code": 81623,
            "address": "District Aprem / Nasralnobh Center",
            "post_office": "Aprem",
            "lat": 24.088938,
            "lng": 32.8998293
        },
        {
            "postal_code": 81628,
            "address": "District Deka / Nasr Nuba",
            "post_office": "Deka",
            "lat": 24.088938,
            "lng": 32.8998293
        },
        {
            "postal_code": 81622,
            "address": "Aniba district / Nasr Center",
            "post_office": "Aniba",
            "lat": 24.088938,
            "lng": 32.8998293
        },
        {
            "postal_code": 81618,
            "address": "Village Adndan / m Nasr Nuba",
            "post_office": "Adndan",
            "lat": 24.3879989,
            "lng": 32.9719348
        },
        {
            "postal_code": 81617,
            "address": "Village Blana - M. Nasr Nuba",
            "post_office": "Blana first",
            "lat": 24.088938,
            "lng": 32.8998293
        },
        {
            "postal_code": 81625,
            "address": "Malky district / Nasr Nuba",
            "post_office": "Malky",
            "lat": 24.088938,
            "lng": 32.8998293
        },
        {
            "postal_code": 81613,
            "address": "KFOR district Kom Ombo / Kom Ombo Center",
            "post_office": "KFOR Kom Ombo",
            "lat": 24.4789609,
            "lng": 32.9461465
        },
        {
            "postal_code": 81642,
            "address": "District and led Abadi / Edfu",
            "post_office": "Valley Ebadi",
            "lat": 24.9791623,
            "lng": 32.875801
        },
        {
            "postal_code": 81643,
            "address": "Alklh district east / Edfu",
            "post_office": "Alklh East",
            "lat": 24.9791623,
            "lng": 32.875801
        },
        {
            "postal_code": 81616,
            "address": "The new district Manshiya / Kom Ombo",
            "post_office": "New Manshiya",
            "lat": 24.4789609,
            "lng": 32.9461465
        },
        {
            "postal_code": 81619,
            "address": "Qustul district and Thomas and wellness / Nasr",
            "post_office": "Qustul and Thomas and wellness",
            "lat": 24.088938,
            "lng": 32.8998293
        },
        {
            "postal_code": 81629,
            "address": "Knight / Kom Ombo Island",
            "post_office": "Knight",
            "lat": 24.4789609,
            "lng": 32.9461465
        },
        {
            "postal_code": 81524,
            "address": "Village High Dam in Aswan",
            "post_office": "High Dam station",
            "lat": 23.970883,
            "lng": 32.8772699
        },
        {
            "postal_code": 81655,
            "address": "Village heels / Aswan",
            "post_office": "Stubs",
            "lat": 24.088938,
            "lng": 32.8998293
        },
        {
            "postal_code": 81636,
            "address": "District of Abu Simbel displacement / Nasr Nuba",
            "post_office": "Abu Simbel displacement",
            "lat": 22.3460086,
            "lng": 31.6156242
        },
        {
            "postal_code": 81635,
            "address": "District Abbasid / Kom Ombo",
            "post_office": "Abbasid Kom Ombo",
            "lat": 24.4789609,
            "lng": 32.9461465
        },
        {
            "postal_code": 81526,
            "address": "District west Sohail Aswan",
            "post_office": "West Suhail",
            "lat": 24.088938,
            "lng": 32.8998293
        },
        {
            "postal_code": 81638,
            "address": "District Strait / Nasr Nuba",
            "post_office": "Strait",
            "lat": 24.088938,
            "lng": 32.8998293
        },
        {
            "postal_code": 81634,
            "address": "Hand Ermana / m Nasr Nuba",
            "post_office": "Ermana",
            "lat": 24.088938,
            "lng": 32.8998293
        },
        {
            "postal_code": 81656,
            "address": "District Alklh Nag Blitz Badfo",
            "post_office": "Alklh West",
            "lat": 24.088938,
            "lng": 32.8998293
        },
        {
            "postal_code": 81659,
            "address": "District architectural Badfo",
            "post_office": "Architecture",
            "lat": 24.088938,
            "lng": 32.8998293
        },
        {
            "postal_code": 81658,
            "address": "District Aghannimih / Aswan / Edfu",
            "post_office": "Aghannimih Aswan",
            "lat": 24.088938,
            "lng": 32.8998293
        },
        {
            "postal_code": 81662,
            "address": "Mail building in Edfu",
            "post_office": "Hajir Edfu",
            "lat": 24.9791623,
            "lng": 32.875801
        },
        {
            "postal_code": 81729,
            "address": "Nag Hilal / Badfo",
            "post_office": "Nag Hilal",
            "lat": 24.088938,
            "lng": 32.8998293
        },
        {
            "postal_code": 81661,
            "address": "District Upper Egyptians Admiral / Edfu",
            "post_office": "Upper Egyptians sea",
            "lat": 24.9791623,
            "lng": 32.875801
        },
        {
            "postal_code": 81657,
            "address": "Lake Aswan Village",
            "post_office": "Lake Aswan",
            "lat": 24.088938,
            "lng": 32.8998293
        },
        {
            "postal_code": 81664,
            "address": "District Alatamor / Kom Ombo",
            "post_office": "Alatamor tribal",
            "lat": 24.4789609,
            "lng": 32.9461465
        },
        {
            "postal_code": 81639,
            "address": "District Allaqi / m Nasr",
            "post_office": "Allaqi Aswan",
            "lat": 24.088938,
            "lng": 32.8998293
        },
        {
            "postal_code": 81527,
            "address": "Behind Banzaioun / Aswan",
            "post_office": "Aswan _ subsidiary",
            "lat": 24.088938,
            "lng": 32.8998293
        },
        {
            "postal_code": 81665,
            "address": "Prefecture of his / Kom Ombo",
            "post_office": "Time",
            "lat": 24.4789609,
            "lng": 32.9461465
        },
        {
            "postal_code": 81724,
            "address": "Salwa district / Kom Ombo",
            "post_office": "Salwa tribal",
            "lat": 24.4698032,
            "lng": 32.9381321
        },
        {
            "postal_code": 81666,
            "address": "District Dhmat / Nasr Nuba",
            "post_office": "Dhmat",
            "lat": 24.088938,
            "lng": 32.8998293
        },
        {
            "postal_code": 81667,
            "address": "Houbara district / Edfu Center",
            "post_office": "Houbara",
            "lat": 24.9791623,
            "lng": 32.875801
        },
        {
            "postal_code": 81668,
            "address": "District Dabod / m Nasr Nuba",
            "post_office": "Dabod",
            "lat": 24.5703605,
            "lng": 32.9481445
        },
        {
            "postal_code": 81731,
            "address": "District Alawyneh / Edfu",
            "post_office": "Aweyna Aswan",
            "lat": 24.9791623,
            "lng": 32.875801
        },
        {
            "postal_code": 81669,
            "address": "District Atwani / Edfu",
            "post_office": "Atwani",
            "lat": 25.0146053,
            "lng": 32.8895726
        },
        {
            "postal_code": 81671,
            "address": "Seventy / Kom Ombo",
            "post_office": "Seventy Kom Ombo",
            "lat": 24.4789609,
            "lng": 32.9461465
        },
        {
            "postal_code": 81673,
            "address": "District and led the Arabs Bnasralnobh",
            "post_office": "Valley Arabs",
            "lat": 24.088938,
            "lng": 32.8998293
        },
        {
            "postal_code": 81672,
            "address": "Npan Admiral / Draw",
            "post_office": "Npan sea",
            "lat": 24.088938,
            "lng": 32.8998293
        },
        {
            "postal_code": 81725,
            "address": "District Sharawna Badfo",
            "post_office": "Sharawna Aswan",
            "lat": 24.088938,
            "lng": 32.8998293
        },
        {
            "postal_code": 81674,
            "address": "District tourism / m Nasr Nuba",
            "post_office": "Aswan tourism",
            "lat": 24.088938,
            "lng": 32.8998293
        },
        {
            "postal_code": 81675,
            "address": "Edfu Center",
            "post_office": "Edfu sub",
            "lat": 24.9779286,
            "lng": 32.8733705
        },
        {
            "postal_code": 81726,
            "address": "Sohail station / Aswan",
            "post_office": "Sohail station",
            "lat": 24.088938,
            "lng": 32.8998293
        },
        {
            "postal_code": 81676,
            "address": "District of Dar es Salaam / m Nasralnobh",
            "post_office": "Dar es Salaam Nubian",
            "lat": 24.088938,
            "lng": 32.8998293
        },
        {
            "postal_code": 81677,
            "address": "District Musmus / Nasr Nuba Center",
            "post_office": "Musmus",
            "lat": 24.088938,
            "lng": 32.8998293
        },
        {
            "postal_code": 81534,
            "address": "Aswan International Airport Terminal",
            "post_office": "Aswan Airport",
            "lat": 24.0932334,
            "lng": 32.8915518
        },
        {
            "postal_code": 81678,
            "address": "District Dakkadik Badfo",
            "post_office": "Dakkadik",
            "lat": 24.088938,
            "lng": 32.8998293
        },
        {
            "postal_code": 81684,
            "address": "District public housing Buildings / Edfu",
            "post_office": "Housing Cobeih_ Edfu",
            "lat": 24.9791623,
            "lng": 32.875801
        },
        {
            "postal_code": 81682,
            "address": "Abu -Saad district / Edfu",
            "post_office": "Abu Saad",
            "lat": 24.9791623,
            "lng": 32.875801
        },
        {
            "postal_code": 81528,
            "address": "Inside the campus of the University of Aswan",
            "post_office": "Aswan University",
            "lat": 23.9965078,
            "lng": 32.8599197
        },
        {
            "postal_code": 81685,
            "address": "The district of Abu my son / Edfu",
            "post_office": "Abu my son",
            "lat": 24.9791623,
            "lng": 32.875801
        },
        {
            "postal_code": 81691,
            "address": "Nag Lyons / Edfu",
            "post_office": "Nag Lyons",
            "lat": 24.9791623,
            "lng": 32.875801
        },
        {
            "postal_code": 81689,
            "address": "Toshka libel / Nasr Nuba Center",
            "post_office": "Toshka East",
            "lat": 24.088938,
            "lng": 32.8998293
        },
        {
            "postal_code": 81688,
            "address": "District Alfoalah / Edfu",
            "post_office": "Alfoalah",
            "lat": 24.9791623,
            "lng": 32.875801
        },
        {
            "postal_code": 81692,
            "address": "District neck / Draw",
            "post_office": "Neck",
            "lat": 24.088938,
            "lng": 32.8998293
        },
        {
            "postal_code": 81694,
            "address": "Nag structure / Draw",
            "post_office": "Nag structure",
            "lat": 24.088938,
            "lng": 32.8998293
        },
        {
            "postal_code": 81693,
            "address": "District Karnak / Edfu",
            "post_office": "Karnak",
            "lat": 25.7104402,
            "lng": 32.6489675
        },
        {
            "postal_code": 81728,
            "address": "Nasiriyah district / Aswan",
            "post_office": "Nasiriyah Aswan",
            "lat": 24.0992473,
            "lng": 32.9076653
        },
        {
            "postal_code": 81727,
            "address": "Alkopanjh West Nile in Aswan",
            "post_office": "Alkopanjh",
            "lat": 24.088938,
            "lng": 32.8998293
        },
        {
            "postal_code": 81695,
            "address": "District Sharawna Badfo sea",
            "post_office": "Sharawna sea",
            "lat": 24.088938,
            "lng": 32.8998293
        },
        {
            "postal_code": 81733,
            "address": "District and led Khrepett- Nasr Nuba",
            "post_office": "Valley vandalized",
            "lat": 24.088938,
            "lng": 32.8998293
        },
        {
            "postal_code": 81732,
            "address": "Behrev Aswan",
            "post_office": "Behrev",
            "lat": 24.088938,
            "lng": 32.8998293
        },
        {
            "postal_code": 81529,
            "address": "District Mount Taqouk / Aswan Center",
            "post_office": "Mount Taqouk",
            "lat": 24.088938,
            "lng": 32.8998293
        },
        {
            "postal_code": 81734,
            "address": "Bayyara / Kom Ombo",
            "post_office": "Bayyara Kom Ombo",
            "lat": 24.4789609,
            "lng": 32.9461465
        },
        {
            "postal_code": 81735,
            "address": "District Almvalsh / Edfu",
            "post_office": "Almvalsh Edfu",
            "lat": 24.9791623,
            "lng": 32.875801
        },
        {
            "postal_code": 81698,
            "address": "Abu Hor / Nasr Nuba",
            "post_office": "Abu Hor _ Kom Ombo",
            "lat": 24.6362539,
            "lng": 32.9395408
        },
        {
            "postal_code": 81531,
            "address": "District crore in Aswan",
            "post_office": "Crore",
            "lat": 24.088938,
            "lng": 32.8998293
        },
        {
            "postal_code": 81736,
            "address": "Nasr district in Aswan",
            "post_office": "Chrisko",
            "lat": 24.088938,
            "lng": 32.8998293
        },
        {
            "postal_code": 81699,
            "address": "Naga district Sayeh / Edfu",
            "post_office": "Nag Sayeh",
            "lat": 24.9791623,
            "lng": 32.875801
        },
        {
            "postal_code": 81737,
            "address": "Prince Cap / m Nasr Nuba",
            "post_office": "Prince Cap",
            "lat": 24.088938,
            "lng": 32.8998293
        },
        {
            "postal_code": 81532,
            "address": "Paradise / Aswan St.",
            "post_office": "Paradise District",
            "lat": 24.0901532,
            "lng": 32.8909601
        },
        {
            "postal_code": 81738,
            "address": "District Alldid / Edfu",
            "post_office": "Alldid",
            "lat": 24.9791623,
            "lng": 32.875801
        },
        {
            "postal_code": 81739,
            "address": "District pie / Kom Ombo",
            "post_office": "Pie",
            "lat": 24.4789609,
            "lng": 32.9461465
        },
        {
            "postal_code": 81599,
            "address": "District and led Alrdesah / Edfu",
            "post_office": "Valley Alrdesah",
            "lat": 24.9791623,
            "lng": 32.875801
        },
        {
            "postal_code": 81741,
            "address": "District magnanimity Badfo",
            "post_office": "Magnanimity",
            "lat": 24.088938,
            "lng": 32.8998293
        },
        {
            "postal_code": 81535,
            "address": "Abualhaggag district near Aswan Radio",
            "post_office": "Sidi Abualhaggag",
            "lat": 24.0822324,
            "lng": 32.9047694
        },
        {
            "postal_code": 81742,
            "address": "District Almcarmeh / Edfu",
            "post_office": "Alacarmeh",
            "lat": 24.9791623,
            "lng": 32.875801
        },
        {
            "postal_code": 81743,
            "address": "District Ataiwash / Draw Center",
            "post_office": "Ataiwash",
            "lat": 24.088938,
            "lng": 32.8998293
        },
        {
            "postal_code": 81536,
            "address": "Cataract in Aswan / industrial city",
            "post_office": "Industrial Complex",
            "lat": 24.082221,
            "lng": 32.8872717
        },
        {
            "postal_code": 81538,
            "address": "Mahmudiya Aswan / hand Mahmudiya",
            "post_office": "Mahmudiya",
            "lat": 24.088938,
            "lng": 32.8998293
        },
        {
            "postal_code": 81745,
            "address": "Village lattice / Edfu",
            "post_office": "Lattice",
            "lat": 24.9791623,
            "lng": 32.875801
        },
        {
            "postal_code": 81751,
            "address": "Seven district west / Edfu",
            "post_office": "Seven turnpike",
            "lat": 24.9779286,
            "lng": 32.8733705
        },
        {
            "postal_code": 81748,
            "address": "Albesalah / Edfu Center",
            "post_office": "Central Albesalah",
            "lat": 24.9791623,
            "lng": 32.875801
        },
        {
            "postal_code": 81749,
            "address": "Mansuriya tribal / Kom Ombo village",
            "post_office": "Or acid",
            "lat": 24.4789609,
            "lng": 32.9461465
        },
        {
            "postal_code": 81746,
            "address": "The village of Al-Zahra - Edfu",
            "post_office": "Zahra Edfu",
            "lat": 24.9791623,
            "lng": 32.875801
        },
        {
            "postal_code": 81747,
            "address": "Village Uqayba / Edfu",
            "post_office": "Uqayba",
            "lat": 24.9791623,
            "lng": 32.875801
        },
        {
            "postal_code": 81753,
            "address": "Central Neck Village / Draw",
            "post_office": "Central neck",
            "lat": 24.088938,
            "lng": 32.8998293
        },
        {
            "postal_code": 81754,
            "address": "Village Torrent / Aswan",
            "post_office": "Albesaly",
            "lat": 24.088938,
            "lng": 32.8998293
        },
        {
            "postal_code": 81752,
            "address": "Nagagerh village - Kom Ombo Center",
            "post_office": "Nagagerh",
            "lat": 24.4789609,
            "lng": 32.9461465
        },
        {
            "postal_code": 81542,
            "address": "Albesaly / Kom Ombo",
            "post_office": "College of Engineering _ Aswan",
            "lat": 24.4789609,
            "lng": 32.9461465
        },
        {
            "postal_code": 81756,
            "address": "Within the Faculty of Engineering / Aswan University building",
            "post_office": "Creek tribal",
            "lat": 24.1285829,
            "lng": 32.89943
        },
        {
            "postal_code": 81761,
            "address": "Alrgamh Kom Ombo",
            "post_office": "Alrgamh",
            "lat": 24.4789609,
            "lng": 32.9461465
        },
        {
            "postal_code": 81755,
            "address": "Hijazh / Kom Ombo",
            "post_office": "Hijazh",
            "lat": 24.4789609,
            "lng": 32.9461465
        },
        {
            "postal_code": 81757,
            "address": "Creek tribal / Abbasid / Com Center Ombo",
            "post_office": "Alatamor emerging",
            "lat": 24.4698032,
            "lng": 32.9381321
        },
        {
            "postal_code": 81762,
            "address": "Umm Salamah / Edfu",
            "post_office": "Umm Salamah",
            "lat": 24.9791623,
            "lng": 32.875801
        },
        {
            "postal_code": 81541,
            "address": "Sohail West Marine",
            "post_office": "Sohail West Marine",
            "lat": 24.088938,
            "lng": 32.8998293
        },
        {
            "postal_code": 81763,
            "address": "Asbaihgrb / Paswan",
            "post_office": "Seven sub west",
            "lat": 24.088938,
            "lng": 32.8998293
        },
        {
            "postal_code": 81537,
            "address": "Edfu / Aswan Center",
            "post_office": "Rural Torrent",
            "lat": 24.9791623,
            "lng": 32.875801
        },
        {
            "postal_code": 81758,
            "address": "Pensions / Edfu",
            "post_office": "Pensions",
            "lat": 24.9791623,
            "lng": 32.875801
        },
        {
            "postal_code": 81764,
            "address": "Mail building Kom Ombo / Com Center Embu",
            "post_office": "Continent",
            "lat": 24.4789609,
            "lng": 32.9461465
        },
        {
            "postal_code": 81765,
            "address": "Corniche El Nile St. in front of rowing / Aswan Club",
            "post_office": "Alguenan",
            "lat": 24.088938,
            "lng": 32.8998293
        },
        {
            "postal_code": 81533,
            "address": "Channel Toshka / South Valley (has been frozen)",
            "post_office": "Channel Toshka",
            "lat": 24.088938,
            "lng": 32.8998293
        },
        {
            "postal_code": 81771,
            "address": "Kom Ombo Center",
            "post_office": "Al Amal village (under construction)",
            "lat": 24.4698032,
            "lng": 32.9381321
        },
        {
            "postal_code": 81545,
            "address": "Aswan - Wadi Karkar",
            "post_office": "Karkar Valley",
            "lat": 24.088938,
            "lng": 32.8998293
        },
        {
            "postal_code": 81911,
            "address": "Mobile post office",
            "post_office": "New Aswan",
            "lat": 24.088938,
            "lng": 32.8998293
        }
    ],
"asyut": [
        {
            "postal_code": 71525,
            "address": "Recruitment conf / conf",
            "post_office": "Recruitment of Assiut",
            "lat": 27.1783117,
            "lng": 31.1859257
        },
        {
            "postal_code": 71511,
            "address": "Conf / New Movement Center Building",
            "post_office": "Assiut",
            "lat": 27.1783117,
            "lng": 31.1859257
        },
        {
            "postal_code": 71717,
            "address": "Abnoub / Port Said St. Center",
            "post_office": "Abnoub",
            "lat": 27.1783117,
            "lng": 31.1859257
        },
        {
            "postal_code": 71641,
            "address": "Abu Tig Center / next to the station",
            "post_office": "Obotej",
            "lat": 27.0422227,
            "lng": 31.3207544
        },
        {
            "postal_code": 71654,
            "address": "Or deficiencies / Manfalot Center",
            "post_office": "Or deficiencies",
            "lat": 27.3113959,
            "lng": 30.9714843
        },
        {
            "postal_code": 71753,
            "address": "Children of despair / Sadfa Center",
            "post_office": "The children of Elias",
            "lat": 26.9662311,
            "lng": 31.3850048
        },
        {
            "postal_code": 71727,
            "address": "Badari Center / u divans",
            "post_office": "Badari Albulaazh",
            "lat": 26.9916626,
            "lng": 31.4133146
        },
        {
            "postal_code": 71738,
            "address": "Albulaazh / Obotej Center / Hospital St.",
            "post_office": "Albulaazh",
            "lat": 27.0490594,
            "lng": 31.3174436
        },
        {
            "postal_code": 71513,
            "address": "Red / conf Center",
            "post_office": "Red Assiut",
            "lat": 27.1783117,
            "lng": 31.1859257
        },
        {
            "postal_code": 71716,
            "address": "Alhuatch / Manfalot / u Arabism Center",
            "post_office": "Alhuatch",
            "lat": 27.1783117,
            "lng": 31.1859257
        },
        {
            "postal_code": 71751,
            "address": "Dwair / Sadfa Center",
            "post_office": "Dwair",
            "lat": 27.1783117,
            "lng": 31.1859257
        },
        {
            "postal_code": 71633,
            "address": "Muharraq Monastery / Qusiya Center / Mar Girgis Church",
            "post_office": "Muharraq Monastery",
            "lat": 27.3845527,
            "lng": 30.7788044
        },
        {
            "postal_code": 71737,
            "address": "Abu Tig Center / u point",
            "post_office": "Carpets Abu Tig Center",
            "lat": 27.0422227,
            "lng": 31.3207544
        },
        {
            "postal_code": 71634,
            "address": "Qusiya Center - Village Alsracna / Central St.",
            "post_office": "Alsracna",
            "lat": 27.4393096,
            "lng": 30.8171333
        },
        {
            "postal_code": 71729,
            "address": "Badari center / unit collected",
            "post_office": "Hobble tribal",
            "lat": 26.9916626,
            "lng": 31.4133146
        },
        {
            "postal_code": 71631,
            "address": "Qusiya / Qusiya Center",
            "post_office": "Qusiya",
            "lat": 27.4393096,
            "lng": 30.8171333
        },
        {
            "postal_code": 71745,
            "address": "Obedient / conf Center",
            "post_office": "Obedient",
            "lat": 27.1783117,
            "lng": 31.1859257
        },
        {
            "postal_code": 71747,
            "address": "Nekheila / Obotej Center / next to the police station",
            "post_office": "Nekheila",
            "lat": 27.1871828,
            "lng": 31.17560169999999
        },
        {
            "postal_code": 71733,
            "address": "Alnoorh / Badari Center",
            "post_office": "Alnoorh",
            "lat": 26.9916626,
            "lng": 31.4133146
        },
        {
            "postal_code": 71722,
            "address": "Wasta / center opening",
            "post_office": "Wasta Assiut",
            "lat": 27.1783117,
            "lng": 31.1859257
        },
        {
            "postal_code": 71517,
            "address": "Neonatal / Assiut Center",
            "post_office": "Neonatal",
            "lat": 27.1783117,
            "lng": 31.1859257
        },
        {
            "postal_code": 71644,
            "address": "Brown listens and / Obotej Center / School next Ambassador",
            "post_office": "Brown is Hearing",
            "lat": 27.0490594,
            "lng": 31.3174436
        },
        {
            "postal_code": 71622,
            "address": "Built Adiat / Manfalot Center / next Mrkzchaabab built Adiat",
            "post_office": "Built Adiat",
            "lat": 27.3113959,
            "lng": 30.9714843
        },
        {
            "postal_code": 71719,
            "address": "Built Mhamdiat / Abnoub Center",
            "post_office": "Built Mhamdiat",
            "lat": 27.2674027,
            "lng": 31.151928
        },
        {
            "postal_code": 71712,
            "address": "Built over / center opening",
            "post_office": "Built over",
            "lat": 27.1783117,
            "lng": 31.1859257
        },
        {
            "postal_code": 71613,
            "address": "Dashlout / Dirout Center",
            "post_office": "Dashlout",
            "lat": 27.5540789,
            "lng": 30.8084386
        },
        {
            "postal_code": 71643,
            "address": "Dwinh / Abu Tig Center / next to the local unit",
            "post_office": "Dwinh",
            "lat": 27.0422227,
            "lng": 31.3207544
        },
        {
            "postal_code": 71734,
            "address": "Drnkh / conf / inside the unit bundled Center",
            "post_office": "Drnkh",
            "lat": 27.1783117,
            "lng": 31.1859257
        },
        {
            "postal_code": 71728,
            "address": "Hobble Admiral / Badari Center",
            "post_office": "Sensible sea",
            "lat": 26.9916626,
            "lng": 31.4133146
        },
        {
            "postal_code": 71611,
            "address": "Dirout Center",
            "post_office": "Dirout",
            "lat": 27.5540789,
            "lng": 30.8084386
        },
        {
            "postal_code": 71614,
            "address": "Dirout Sharif / Dirout Center",
            "post_office": "Dirout Sharif",
            "lat": 27.5725873,
            "lng": 30.8160135
        },
        {
            "postal_code": 71739,
            "address": "Deir Ganadlh / Ghanayem Center",
            "post_office": "Deir Ganadlh",
            "lat": 26.8734587,
            "lng": 31.3260154
        },
        {
            "postal_code": 71735,
            "address": "Riva / conf center / assembled unit",
            "post_office": "Riva",
            "lat": 27.097628,
            "lng": 31.2070077
        },
        {
            "postal_code": 71723,
            "address": "Sahel Selim Center",
            "post_office": "Salim Coast",
            "lat": 27.0450679,
            "lng": 31.3370074
        },
        {
            "postal_code": 71743,
            "address": "Delisting / conf Center",
            "post_office": "Write off",
            "lat": 27.1783117,
            "lng": 31.1859257
        },
        {
            "postal_code": 71748,
            "address": "Sadfa Center / u station",
            "post_office": "Sadfa",
            "lat": 26.9681893,
            "lng": 31.3802985
        },
        {
            "postal_code": 71619,
            "address": "Faucet Kitchen / Dirout Center",
            "post_office": "Faucet Kitchen",
            "lat": 27.5540789,
            "lng": 30.8084386
        },
        {
            "postal_code": 71512,
            "address": "Caesarea / center conf / Saad Zaghloul St. Endowments Buildings",
            "post_office": "Caesarea Assiut",
            "lat": 27.1763718,
            "lng": 31.1809197
        },
        {
            "postal_code": 71615,
            "address": "Qrchih Dirout / Dirout Center",
            "post_office": "Qrchih Dirout",
            "lat": 27.5540789,
            "lng": 30.8084386
        },
        {
            "postal_code": 71621,
            "address": "Manfalot / Manfalot Center",
            "post_office": "Manfalot",
            "lat": 27.3113959,
            "lng": 30.9714843
        },
        {
            "postal_code": 71636,
            "address": "Mir / Qusiya Center",
            "post_office": "Mir",
            "lat": 27.4393096,
            "lng": 30.8171333
        },
        {
            "postal_code": 71632,
            "address": "Nzaly South / Qusiya Center",
            "post_office": "Nzaly South",
            "lat": 27.4393096,
            "lng": 30.8171333
        },
        {
            "postal_code": 71715,
            "address": "Bani Zaid / Mrkzibnob",
            "post_office": "Bani Zaid Kurds",
            "lat": 27.2019477,
            "lng": 31.1395358
        },
        {
            "postal_code": 71721,
            "address": "Moaabdah / Abnoub Center",
            "post_office": "Moaabdah",
            "lat": 27.2674027,
            "lng": 31.151928
        },
        {
            "postal_code": 71714,
            "address": "Arabs rainy / Open Center",
            "post_office": "Arabs aviary",
            "lat": 27.1783117,
            "lng": 31.1859257
        },
        {
            "postal_code": 71617,
            "address": "Track / Dirout Center",
            "post_office": "Track",
            "lat": 27.5540789,
            "lng": 30.8084386
        },
        {
            "postal_code": 71749,
            "address": "Albarba Sadfa / Sadfa Center / next to the police station",
            "post_office": "Albarba Sadfa",
            "lat": 27.1783117,
            "lng": 31.1859257
        },
        {
            "postal_code": 71652,
            "address": "Rafe Brown / Mrkzmnfelot / u cowardly",
            "post_office": "Built lifter",
            "lat": 27.1783117,
            "lng": 31.1859257
        },
        {
            "postal_code": 71637,
            "address": "Fsazh / Qusiya Center",
            "post_office": "Fazarah Mahmudiya",
            "lat": 27.4393096,
            "lng": 30.8171333
        },
        {
            "postal_code": 71612,
            "address": "Alhuta / Dirout Center",
            "post_office": "Alhuta",
            "lat": 27.5540789,
            "lng": 30.8084386
        },
        {
            "postal_code": 71616,
            "address": "Islam as friendly / Dirout Center",
            "post_office": "Islam as friendly",
            "lat": 27.5540789,
            "lng": 30.8084386
        },
        {
            "postal_code": 71757,
            "address": "Accelerator / conf Center",
            "post_office": "Accelerator",
            "lat": 27.1783117,
            "lng": 31.1859257
        },
        {
            "postal_code": 71711,
            "address": "Alvima / Open Center",
            "post_office": "Alvima",
            "lat": 27.1783117,
            "lng": 31.1859257
        },
        {
            "postal_code": 71623,
            "address": "Built glory / Manfalot Center",
            "post_office": "Built glory",
            "lat": 27.3113959,
            "lng": 30.9714843
        },
        {
            "postal_code": 71642,
            "address": "Abu Tig center / front of the Bank of Egypt",
            "post_office": "Abu Tig sub",
            "lat": 27.0422227,
            "lng": 31.3207544
        },
        {
            "postal_code": 71724,
            "address": "Boit / Coast Center Saleem",
            "post_office": "Boit",
            "lat": 27.1783117,
            "lng": 31.1859257
        },
        {
            "postal_code": 71653,
            "address": "Alttalah / Qusiya / u point center",
            "post_office": "Alttalah",
            "lat": 27.4393096,
            "lng": 30.8171333
        },
        {
            "postal_code": 71718,
            "address": "El-Hammam Assiut / Abnoub Center",
            "post_office": "El-Hammam Assiut",
            "lat": 27.1783117,
            "lng": 31.1859257
        },
        {
            "postal_code": 71762,
            "address": "Nag seven / Assiut / Unity Center St.",
            "post_office": "Nag seven",
            "lat": 27.1783117,
            "lng": 31.1859257
        },
        {
            "postal_code": 71742,
            "address": "Ghanayem Center",
            "post_office": "Ghanayem",
            "lat": 26.8734587,
            "lng": 31.3260154
        },
        {
            "postal_code": 71618,
            "address": "Mandara Admiral / Dirout Center",
            "post_office": "Mandara sea",
            "lat": 27.5540789,
            "lng": 30.8084386
        },
        {
            "postal_code": 71625,
            "address": "Alatamna / Manfalot Center",
            "post_office": "Alatamna Manfalot",
            "lat": 27.3113959,
            "lng": 30.9714843
        },
        {
            "postal_code": 71516,
            "address": "University City / conf Center",
            "post_office": "University City",
            "lat": 27.1783117,
            "lng": 31.1859257
        },
        {
            "postal_code": 71655,
            "address": "Oak / Qusiya Center",
            "post_office": "Oak",
            "lat": 27.4393096,
            "lng": 30.8171333
        },
        {
            "postal_code": 71713,
            "address": "Arabs Alotaulh / center opening",
            "post_office": "Arabs Alotaulh",
            "lat": 27.1783117,
            "lng": 31.1859257
        },
        {
            "postal_code": 71741,
            "address": "Almhayah / center Ghanayem / u hospital",
            "post_office": "Almhayah",
            "lat": 27.1783117,
            "lng": 31.1859257
        },
        {
            "postal_code": 71626,
            "address": "Promenade decision / Manfalot center / field Martyr Fathi",
            "post_office": "Promenade decision",
            "lat": 27.3113959,
            "lng": 30.9714843
        },
        {
            "postal_code": 71731,
            "address": "Hungry Maadi / Badari Center",
            "post_office": "Hungry Maadi",
            "lat": 29.9601561,
            "lng": 31.2569138
        },
        {
            "postal_code": 71726,
            "address": "Aalladerh / Coast Center Saleem",
            "post_office": "Aalladerh",
            "lat": 27.1783117,
            "lng": 31.1859257
        },
        {
            "postal_code": 71752,
            "address": "Azayzeh / Ghanayem Center / u believers",
            "post_office": "Azayzeh",
            "lat": 26.8734587,
            "lng": 31.3260154
        },
        {
            "postal_code": 71758,
            "address": "Gehdm / Manfalot / El Sheikh Ali Center",
            "post_office": "Gehdm",
            "lat": 27.3113959,
            "lng": 30.9714843
        },
        {
            "postal_code": 71759,
            "address": "Aziyah / Manfalot / u / Center Health Unit",
            "post_office": "Aziyah",
            "lat": 27.3113959,
            "lng": 30.9714843
        },
        {
            "postal_code": 71765,
            "address": "Winepress / Open Center",
            "post_office": "Winepress Open Center",
            "lat": 27.1783117,
            "lng": 31.1859257
        },
        {
            "postal_code": 71764,
            "address": "Built Ghalib / conf Center",
            "post_office": "Built Ghalib",
            "lat": 27.1783117,
            "lng": 31.1859257
        },
        {
            "postal_code": 71629,
            "address": "Cliff Sarhan / Dirout Center",
            "post_office": "Cliff Sarhan",
            "lat": 27.1838718,
            "lng": 31.1432228
        },
        {
            "postal_code": 71763,
            "address": "Alwan / conf Center / u post office",
            "post_office": "Alwan",
            "lat": 27.1783117,
            "lng": 31.1859257
        },
        {
            "postal_code": 71638,
            "address": "Republic u / Manfalot Center",
            "post_office": "Manfalot sub",
            "lat": 27.3113959,
            "lng": 30.9714843
        },
        {
            "postal_code": 71519,
            "address": "Faculty of Islamic girls / conf Center",
            "post_office": "Faculty of Islamic girls",
            "lat": 27.1783117,
            "lng": 31.1859257
        },
        {
            "postal_code": 71627,
            "address": "Dirout sub / Dirout Center",
            "post_office": "Dirout sub",
            "lat": 27.5540789,
            "lng": 30.8084386
        },
        {
            "postal_code": 71779,
            "address": "Salim Coast / Coast Center Saleem",
            "post_office": "Salim sub Coast",
            "lat": 27.1783117,
            "lng": 31.1859257
        },
        {
            "postal_code": 71656,
            "address": "Bani Hilal / Qusiya Center",
            "post_office": "Bani Hilal _ Assiut",
            "lat": 27.4546101,
            "lng": 30.7551101
        },
        {
            "postal_code": 71768,
            "address": "Ghanayem Center",
            "post_office": "Ghanayem sub",
            "lat": 26.8734587,
            "lng": 31.3260154
        },
        {
            "postal_code": 71767,
            "address": "Abnoub / u Republic Center",
            "post_office": "Abnoub sub",
            "lat": 27.2674027,
            "lng": 31.151928
        },
        {
            "postal_code": 71772,
            "address": "Catarrh Abdella / Assiut Center",
            "post_office": "Catarrh Abdellah _ociot",
            "lat": 27.1783117,
            "lng": 31.1859257
        },
        {
            "postal_code": 71769,
            "address": "Built support / Manfalot Center / u position",
            "post_office": "Built support",
            "lat": 27.3113959,
            "lng": 30.9714843
        },
        {
            "postal_code": 71771,
            "address": "Majres / Sadfa Center / u year bridge",
            "post_office": "Majres",
            "lat": 26.9780629,
            "lng": 31.3785344
        },
        {
            "postal_code": 71522,
            "address": "Strangely / Coast Center Saleem",
            "post_office": "Strange",
            "lat": 27.1783117,
            "lng": 31.1859257
        },
        {
            "postal_code": 71524,
            "address": "Al-Azhar University / conf Center",
            "post_office": "_ Al Azhar University Assiut",
            "lat": 30.0592755,
            "lng": 31.3130703
        },
        {
            "postal_code": 71773,
            "address": "Kom Isfaht / Sadfa Center",
            "post_office": "Kom Isfaht",
            "lat": 26.9367122,
            "lng": 31.3274032
        },
        {
            "postal_code": 71645,
            "address": "Bblao / Dirout Center",
            "post_office": "Bblao",
            "lat": 27.5540789,
            "lng": 30.8084386
        },
        {
            "postal_code": 71781,
            "address": "Burah gifts / conf Center",
            "post_office": "Burah gifts",
            "lat": 27.1783117,
            "lng": 31.1859257
        },
        {
            "postal_code": 71646,
            "address": "Catarrh Abdellah / Dirout Center",
            "post_office": "Catarrh Abdul Ag Dirout",
            "lat": 27.5540789,
            "lng": 30.8084386
        },
        {
            "postal_code": 71777,
            "address": "Norms / Badari Center",
            "post_office": "Norms",
            "lat": 26.9916626,
            "lng": 31.4133146
        },
        {
            "postal_code": 71774,
            "address": "Alhamaih / Badari Center",
            "post_office": "Alhamaih",
            "lat": 26.9916626,
            "lng": 31.4133146
        },
        {
            "postal_code": 71649,
            "address": "Arabs Jehmah / Qusiya / u Posta Center",
            "post_office": "Arabs Jehmah",
            "lat": 27.4393096,
            "lng": 30.8171333
        },
        {
            "postal_code": 71776,
            "address": "Joyful / conf Center",
            "post_office": "Joyful _ Assiut",
            "lat": 27.1783117,
            "lng": 31.1859257
        },
        {
            "postal_code": 71647,
            "address": "Com Buha / Dirout Center",
            "post_office": "Com Buha",
            "lat": 27.5540789,
            "lng": 30.8084386
        },
        {
            "postal_code": 71783,
            "address": "Mubarak City / conf Center",
            "post_office": "Mubarak City",
            "lat": 27.1672967,
            "lng": 31.1850022
        },
        {
            "postal_code": 71657,
            "address": "Built Haran / Mrkzmnfelot",
            "post_office": "Built Haran",
            "lat": 27.1783117,
            "lng": 31.1859257
        },
        {
            "postal_code": 71782,
            "address": "Oil / conf refining center",
            "post_office": "Petroleum refining",
            "lat": 27.1783117,
            "lng": 31.1859257
        },
        {
            "postal_code": 71785,
            "address": "Open City / Conquest Center / u Supply",
            "post_office": "Open City",
            "lat": 27.1783117,
            "lng": 31.1859257
        },
        {
            "postal_code": 71659,
            "address": "Qusiya El Sheikh Bakhit Center",
            "post_office": "Qusiya sub",
            "lat": 27.4393096,
            "lng": 30.8171333
        },
        {
            "postal_code": 71784,
            "address": "Alnoorh tribal / Badari Center",
            "post_office": "Alnoorh tribal",
            "lat": 26.9916626,
            "lng": 31.4133146
        },
        {
            "postal_code": 71662,
            "address": "Almnashy Dirout / Dirout Center",
            "post_office": "Almnashy Dirout",
            "lat": 27.5540789,
            "lng": 30.8084386
        },
        {
            "postal_code": 71661,
            "address": "Awaja / Dirout Center",
            "post_office": "Awaja",
            "lat": 27.5540789,
            "lng": 30.8084386
        },
        {
            "postal_code": 71663,
            "address": "Manfalot / Manfalot Center",
            "post_office": "Second Manfalot",
            "lat": 27.3113959,
            "lng": 30.9714843
        },
        {
            "postal_code": 71787,
            "address": "Built VIS / Sadfa Center / u bridge",
            "post_office": "Built Phys",
            "lat": 27.1783117,
            "lng": 31.1859257
        },
        {
            "postal_code": 71786,
            "address": "Kerkars / conf Center",
            "post_office": "Kerkars Osaoutih",
            "lat": 27.1358383,
            "lng": 31.2680876
        },
        {
            "postal_code": 71814,
            "address": "The village of Deir Lune before middle school / sound Coast",
            "post_office": "Deir Lune",
            "lat": 27.1783117,
            "lng": 31.1859257
        },
        {
            "postal_code": 71526,
            "address": "Faculty of Pharmacy / conf Center",
            "post_office": "College of Pharmacy",
            "lat": 27.1876773,
            "lng": 31.1654442
        },
        {
            "postal_code": 71664,
            "address": "Abu Tig center / front of the sports club",
            "post_office": "Abu Tig country",
            "lat": 27.0422227,
            "lng": 31.3207544
        },
        {
            "postal_code": 71788,
            "address": "Al Shanaina / Sadfa Center",
            "post_office": "Al Shanaina",
            "lat": 26.9120846,
            "lng": 31.3784628
        },
        {
            "postal_code": 71816,
            "address": "Palace / village center opening",
            "post_office": "Palace Open Center",
            "lat": 27.1783117,
            "lng": 31.1859257
        },
        {
            "postal_code": 71665,
            "address": "Catarrh Mustafa / Dirout Center",
            "post_office": "Catarrh Mustafa",
            "lat": 27.5540789,
            "lng": 30.8084386
        },
        {
            "postal_code": 71797,
            "address": "Sadfa / Abul Abbas El Center",
            "post_office": "Sadfa sub",
            "lat": 26.9681893,
            "lng": 31.3802985
        },
        {
            "postal_code": 71789,
            "address": "Arabs tanneries / conf Center",
            "post_office": "Arabs tanneries",
            "lat": 27.1783117,
            "lng": 31.1859257
        },
        {
            "postal_code": 71791,
            "address": "Peace / conf",
            "post_office": "Peace _ Assiut",
            "lat": 27.1783117,
            "lng": 31.1859257
        },
        {
            "postal_code": 71793,
            "address": "Circular / Manfalot Center",
            "post_office": "Trochanter",
            "lat": 27.3113959,
            "lng": 30.9714843
        },
        {
            "postal_code": 71792,
            "address": "Alonh / Coast Center Saleem",
            "post_office": "Alonh",
            "lat": 27.1783117,
            "lng": 31.1859257
        },
        {
            "postal_code": 71667,
            "address": "Alhbalsh / Qusiya / Hussein El Center",
            "post_office": "Alhbalsh",
            "lat": 27.4393096,
            "lng": 30.8171333
        },
        {
            "postal_code": 71794,
            "address": "Nag Zurayk / Badari Center",
            "post_office": "Nag Zurayk",
            "lat": 26.9916626,
            "lng": 31.4133146
        },
        {
            "postal_code": 71666,
            "address": "Great facility / Qusiya / El Sheikh Center forbidding",
            "post_office": "Great facility",
            "lat": 27.4393096,
            "lng": 30.8171333
        },
        {
            "postal_code": 71811,
            "address": "Dkran / Obotej Center / u schools",
            "post_office": "Dkran",
            "lat": 27.0490594,
            "lng": 31.3174436
        },
        {
            "postal_code": 71521,
            "address": "Assiut pensions / Assiut",
            "post_office": "Assiut pensions",
            "lat": 27.1783117,
            "lng": 31.1859257
        },
        {
            "postal_code": 71813,
            "address": "Village landfill / Coast sound",
            "post_office": "Landfill",
            "lat": 27.1783117,
            "lng": 31.1859257
        },
        {
            "postal_code": 71795,
            "address": "Arabs corkscrews / center opening",
            "post_office": "Arabs corkscrews",
            "lat": 27.1783117,
            "lng": 31.1859257
        },
        {
            "postal_code": 71528,
            "address": "Mubarak Alexandria / conf Center",
            "post_office": "Alexandria Mubarak",
            "lat": 31.2000924,
            "lng": 29.9187387
        },
        {
            "postal_code": 71529,
            "address": "Assiut Center",
            "post_office": "Directorate of Health Affairs",
            "lat": 27.1783117,
            "lng": 31.1859257
        },
        {
            "postal_code": 71669,
            "address": "Althompsahih / Qusiya Center / u Agricultural Society",
            "post_office": "Althompsahih",
            "lat": 27.3959983,
            "lng": 30.8074085
        },
        {
            "postal_code": 71796,
            "address": "Aluaadilh / Sadfa Center",
            "post_office": "Aluaadilh",
            "lat": 27.1783117,
            "lng": 31.1859257
        },
        {
            "postal_code": 71671,
            "address": "Facility plank / u Qusiya point",
            "post_office": "Facility stage",
            "lat": 27.4393096,
            "lng": 30.8171333
        },
        {
            "postal_code": 71798,
            "address": "Shanabla / Abnoub Center",
            "post_office": "Shanabla",
            "lat": 27.2674027,
            "lng": 31.151928
        },
        {
            "postal_code": 71672,
            "address": "Nag Khadr / Dirout / u mayor Center",
            "post_office": "Nag Khadr",
            "lat": 27.5540789,
            "lng": 30.8084386
        },
        {
            "postal_code": 71799,
            "address": "Abu Khrs / Abu Tig Center / u schools",
            "post_office": "Abu Khrs",
            "lat": 27.0422227,
            "lng": 31.3207544
        },
        {
            "postal_code": 71673,
            "address": "Almsaudy / Abu Tig Center",
            "post_office": "Almsaudy",
            "lat": 27.0422227,
            "lng": 31.3207544
        },
        {
            "postal_code": 71812,
            "address": "Sons Mohammed / Ghanayem Center",
            "post_office": "Sons Mohammed Ghanayem",
            "lat": 26.8734587,
            "lng": 31.3260154
        },
        {
            "postal_code": 71815,
            "address": "Ibrahim village built in front of the health unit / Abnoub",
            "post_office": "Lubna Ibrahim",
            "lat": 27.2674027,
            "lng": 31.151928
        },
        {
            "postal_code": 71674,
            "address": "Village Zeera - Abu Tig Center",
            "post_office": "Zeera",
            "lat": 27.0422227,
            "lng": 31.3207544
        },
        {
            "postal_code": 71699,
            "address": "Abnoub Center",
            "post_office": "Marine Attaat",
            "lat": 27.2674027,
            "lng": 31.151928
        },
        {
            "postal_code": 71675,
            "address": "Abu Tig center / village Alacadma",
            "post_office": "Alokadma",
            "lat": 27.0422227,
            "lng": 31.3207544
        },
        {
            "postal_code": 71676,
            "address": "Kom Red / Badari village center",
            "post_office": "Kom Red",
            "lat": 26.9916626,
            "lng": 31.4133146
        },
        {
            "postal_code": 71768,
            "address": "Beni Saleh Alqosia",
            "post_office": "Beni Saleh Alqosia",
            "lat": 27.1783117,
            "lng": 31.1859257
        },
        {
            "postal_code": 71826,
            "address": "Has not yet been opened",
            "post_office": "Ezbet of Copts (under construction)",
            "lat": 27.1783117,
            "lng": 31.1859257
        },
        {
            "postal_code": 71694,
            "address": "Al Qusiya Center - has not been opened to date",
            "post_office": "Desert Mir",
            "lat": 27.4393096,
            "lng": 30.8171333
        },
        {
            "postal_code": 71827,
            "address": "Dirout Center - has not yet been opened",
            "post_office": "Desert Delchot",
            "lat": 27.5540789,
            "lng": 30.8084386
        },
        {
            "postal_code": 71828,
            "address": "Dirout Center",
            "post_office": "Abu Kareem",
            "lat": 27.5540789,
            "lng": 30.8084386
        },
        {
            "postal_code": 71531,
            "address": "Complex Courts Complex - Assiut",
            "post_office": "Assiut Courts Complex",
            "lat": 27.194268,
            "lng": 31.1868811
        },
        {
            "postal_code": 71842,
            "address": "Al Qusiya Center - has not been opened to date",
            "post_office": "Haradina",
            "lat": 27.4393096,
            "lng": 30.8171333
        },
        {
            "postal_code": 71527,
            "address": "In Assiut railway station building",
            "post_office": "Assiut Station",
            "lat": 27.1801198,
            "lng": 31.1883268
        },
        {
            "postal_code": 71521,
            "address": "Saad Zaghloul St. El Mahatta Sq",
            "post_office": "Assiut Provision Area",
            "lat": 27.1783117,
            "lng": 31.1859257
        },
        {
            "postal_code": 71746,
            "address": "Corner / Assiut Center",
            "post_office": "the corner",
            "lat": 27.1783117,
            "lng": 31.1859257
        },
        {
            "postal_code": 71716,
            "address": "Al Tawabiyah / Al Fath Center",
            "post_office": "Al Tawabiyah",
            "lat": 27.2010534,
            "lng": 31.2397438
        }
    ],
 "beheira": [
        {
            "postal_code": 22511,
            "address": "St. Directorate -medan station - Damanhur",
            "post_office": "Damanhur",
            "lat": 31.0424566,
            "lng": 30.4727503
        },
        {
            "postal_code": 22512,
            "address": "Damanhur / field bus Shubra City",
            "post_office": "Shubra Aldmanhorih",
            "lat": 31.0424566,
            "lng": 30.4727503
        },
        {
            "postal_code": 22513,
            "address": "Damanhur City",
            "post_office": "Makrizy",
            "lat": 31.0424566,
            "lng": 30.4727503
        },
        {
            "postal_code": 22514,
            "address": "Mustafa Kamel El Beside The SSI - Damanhur",
            "post_office": "Phrase is",
            "lat": 31.041167,
            "lng": 30.4671749
        },
        {
            "postal_code": 22516,
            "address": "Next to the upper bridge - Damanhur",
            "post_office": "Government compound in Damanhour",
            "lat": 31.03795,
            "lng": 30.4330947
        },
        {
            "postal_code": 22517,
            "address": "Abu Rish service center - the city of Damanhur",
            "post_office": "Abu Rish _lakeh",
            "lat": 31.0424566,
            "lng": 30.4727503
        },
        {
            "postal_code": 22518,
            "address": "Damanhur City",
            "post_office": "Clicked",
            "lat": 31.0424566,
            "lng": 30.4727503
        },
        {
            "postal_code": 22519,
            "address": "Damanhur Center",
            "post_office": "Sentis",
            "lat": 31.0424566,
            "lng": 30.4727503
        },
        {
            "postal_code": 22551,
            "address": "City Damanhur Qandil Street",
            "post_office": "City victory Damanhur",
            "lat": 31.0240612,
            "lng": 30.45967349999999
        },
        {
            "postal_code": 22611,
            "address": "The station - the city of Abu Hummus",
            "post_office": "Abouhmus",
            "lat": 31.0850705,
            "lng": 30.3091335
        },
        {
            "postal_code": 22612,
            "address": "Nasser Street - the city of Abu Hummus",
            "post_office": "Abouhmus country",
            "lat": 31.1007602,
            "lng": 30.3158808
        },
        {
            "postal_code": 22613,
            "address": "Abu Hummus / c Center",
            "post_office": "Jawad Hosni",
            "lat": 31.1007602,
            "lng": 30.3158808
        },
        {
            "postal_code": 22614,
            "address": "Abu Homs Center",
            "post_office": "Convoy",
            "lat": 31.1007602,
            "lng": 30.3158808
        },
        {
            "postal_code": 22615,
            "address": "Abu Homs Center",
            "post_office": "Facility Dsena",
            "lat": 31.1007602,
            "lng": 30.3158808
        },
        {
            "postal_code": 22616,
            "address": "Com archways Abu Hummus",
            "post_office": "Com Spans",
            "lat": 31.1007602,
            "lng": 30.3158808
        },
        {
            "postal_code": 22617,
            "address": "Abu Homs Center",
            "post_office": "Palm Marine",
            "lat": 31.1007602,
            "lng": 30.3158808
        },
        {
            "postal_code": 22621,
            "address": "Kafr Dawar City / Street July 26",
            "post_office": "Kvraldoar",
            "lat": 31.13403569999999,
            "lng": 30.133566
        },
        {
            "postal_code": 22622,
            "address": "City Kafr Dawar",
            "post_office": "Kvraldoarveray",
            "lat": 31.13403569999999,
            "lng": 30.133566
        },
        {
            "postal_code": 22623,
            "address": "Kafr Dawar / Parks District Center",
            "post_office": "Kvraldoar fabric",
            "lat": 31.13403569999999,
            "lng": 30.133566
        },
        {
            "postal_code": 22624,
            "address": "Kafr El Dawar",
            "post_office": "White housing",
            "lat": 31.13403569999999,
            "lng": 30.133566
        },
        {
            "postal_code": 22625,
            "address": "Kafr El Dawar",
            "post_office": "Albesgulwn",
            "lat": 31.13403569999999,
            "lng": 30.133566
        },